{
"type": "FeatureCollection",
"name": "BatiALEC",
"crs": { "type": "name", "properties": { "name": "urn:ogc:def:crs:OGC:1.3:CRS84" } },
"features": [
{ "type": "Feature", "properties": { "ID_BAT": 1, "CODE_COM": 35001, "NOM_COM": "Acigné", "NOM_BATI": "Mairie / Salle des Clouères", "ADRESSE": "Place de la Mairie", "X": -1.5340942242553002, "Y": 48.13359429413169, "SURFACE": 1070, "RENOVATION": "Oui", "TYPE": "Administratif" }, "geometry": { "type": "Point", "coordinates": [ -1.5340942242553, 48.13359429413169 ] } },
{ "type": "Feature", "properties": { "ID_BAT": 2, "CODE_COM": 35001, "NOM_COM": "Acigné", "NOM_BATI": "La Passerelle", "ADRESSE": "Avenue Abbé Barbedet", "X": -1.5374075547683625, "Y": 48.134714449398508, "SURFACE": 6670, "RENOVATION": "Non", "TYPE": "Scolaire" }, "geometry": { "type": "Point", "coordinates": [ -1.537407554768363, 48.134714449398508 ] } },
{ "type": "Feature", "properties": { "ID_BAT": 3, "CODE_COM": 35001, "NOM_COM": "Acigné", "NOM_BATI": "MAPA", "ADRESSE": "Impasse des 4 saisons", "X": -1.5394502252056679, "Y": 48.132390156258609, "SURFACE": 1550, "RENOVATION": "Non", "TYPE": "Sanitaire" }, "geometry": { "type": "Point", "coordinates": [ -1.539450225205668, 48.132390156258609 ] } },
{ "type": "Feature", "properties": { "ID_BAT": 4, "CODE_COM": 35001, "NOM_COM": "Acigné", "NOM_BATI": "Salle de sports de la lande Guérin", "ADRESSE": "Rue des Verdaudais", "X": -1.5336303630854378, "Y": 48.139824009639042, "SURFACE": 3250, "RENOVATION": "Non", "TYPE": "Sportif" }, "geometry": { "type": "Point", "coordinates": [ -1.533630363085438, 48.139824009639042 ] } },
{ "type": "Feature", "properties": { "ID_BAT": 5, "CODE_COM": 35001, "NOM_COM": "Acigné", "NOM_BATI": "Le Triptik", "ADRESSE": "6 Rue du Triptik", "X": -1.5330858849292897, "Y": 48.141937845469478, "SURFACE": 1700, "RENOVATION": "Oui", "TYPE": "Administratif" }, "geometry": { "type": "Point", "coordinates": [ -1.53308588492929, 48.141937845469478 ] } },
{ "type": "Feature", "properties": { "ID_BAT": 6, "CODE_COM": 35001, "NOM_COM": "Acigné", "NOM_BATI": "Ecole de musique", "ADRESSE": "12 Rue de Calais", "X": -1.5347050192702687, "Y": 48.132540289467649, "SURFACE": 475, "RENOVATION": "Oui", "TYPE": "Scolaire" }, "geometry": { "type": "Point", "coordinates": [ -1.534705019270269, 48.132540289467649 ] } },
{ "type": "Feature", "properties": { "ID_BAT": 7, "CODE_COM": 35001, "NOM_COM": "Acigné", "NOM_BATI": "Complexe sportif du Chèvre + Multi-accueil Chrysalide", "ADRESSE": "Rue Saint-Exupéry", "X": -1.5398980488206235, "Y": 48.135969238468604, "SURFACE": 3320, "RENOVATION": "Oui", "TYPE": "Sportif" }, "geometry": { "type": "Point", "coordinates": [ -1.539898048820624, 48.135969238468604 ] } },
{ "type": "Feature", "properties": { "ID_BAT": 8, "CODE_COM": 35001, "NOM_COM": "Acigné", "NOM_BATI": "Centre technique municipal", "ADRESSE": "11 Joval", "X": -1.5178307977041148, "Y": 48.135046244145848, "SURFACE": 1600, "RENOVATION": "Non", "TYPE": "Administratif" }, "geometry": { "type": "Point", "coordinates": [ -1.517830797704115, 48.135046244145848 ] } },
{ "type": "Feature", "properties": { "ID_BAT": 9, "CODE_COM": 35001, "NOM_COM": "Acigné", "NOM_BATI": "Ferme de la Motte", "ADRESSE": "58 Rue du Fort de la Motte", "X": -1.526925069348618, "Y": 48.131944103406532, "SURFACE": 240, "RENOVATION": "Non", "TYPE": "Scolaire" }, "geometry": { "type": "Point", "coordinates": [ -1.526925069348618, 48.131944103406532 ] } },
{ "type": "Feature", "properties": { "ID_BAT": 10, "CODE_COM": 35001, "NOM_COM": "Acigné", "NOM_BATI": "EPHAD", "ADRESSE": "2 Rue Germaine Tillion", "X": -1.5283097692757388, "Y": 48.141195468899127, "SURFACE": 3900, "RENOVATION": "Oui", "TYPE": "Sanitaire" }, "geometry": { "type": "Point", "coordinates": [ -1.528309769275739, 48.141195468899127 ] } },
{ "type": "Feature", "properties": { "ID_BAT": 11, "CODE_COM": 35001, "NOM_COM": "Acigné", "NOM_BATI": "Vestiaires de rugby", "ADRESSE": "Rue des Verdaudais", "X": -1.5342747773064997, "Y": 48.141656806845923, "SURFACE": 291, "RENOVATION": "Non", "TYPE": "Sportif" }, "geometry": { "type": "Point", "coordinates": [ -1.5342747773065, 48.141656806845923 ] } },
{ "type": "Feature", "properties": { "ID_BAT": 12, "CODE_COM": 35139, "NOM_COM": "Laillé", "NOM_BATI": "Salle des sports, Haut Patis", "ADRESSE": "12 Rue du Stade", "X": -1.7150277771343001, "Y": 47.982655453554003, "SURFACE": 1800, "RENOVATION": "Non", "TYPE": "Sportif" }, "geometry": { "type": "Point", "coordinates": [ -1.7150277771343, 47.982655453554003 ] } },
{ "type": "Feature", "properties": { "ID_BAT": 13, "CODE_COM": 35139, "NOM_COM": "Laillé", "NOM_BATI": "Le Point 21", "ADRESSE": "21 Rue du Point du Jour", "X": -1.7170939, "Y": 47.9784058, "SURFACE": 1600, "RENOVATION": "Oui", "TYPE": "Culturel" }, "geometry": { "type": "Point", "coordinates": [ -1.7170939, 47.9784058 ] } },
{ "type": "Feature", "properties": { "ID_BAT": 14, "CODE_COM": 35139, "NOM_COM": "Laillé", "NOM_BATI": "Groupe Scolaire / ALSH", "ADRESSE": "23 Rue du Parc", "X": -1.7198736, "Y": 47.9807299, "SURFACE": 3210, "RENOVATION": "Oui", "TYPE": "Scolaire" }, "geometry": { "type": "Point", "coordinates": [ -1.7198736, 47.9807299 ] } },
{ "type": "Feature", "properties": { "ID_BAT": 15, "CODE_COM": 35139, "NOM_COM": "Laillé", "NOM_BATI": "Crèche Halte Garderie", "ADRESSE": "1 Allée du Château Noble", "X": -1.7211936, "Y": 47.9779754, "SURFACE": 270, "RENOVATION": "Non", "TYPE": "Scolaire" }, "geometry": { "type": "Point", "coordinates": [ -1.7211936, 47.9779754 ] } },
{ "type": "Feature", "properties": { "ID_BAT": 16, "CODE_COM": 35139, "NOM_COM": "Laillé", "NOM_BATI": "Mairie", "ADRESSE": "Rue de la Halte", "X": -1.7214672, "Y": 47.9787589, "SURFACE": 400, "RENOVATION": "Non", "TYPE": "Administratif" }, "geometry": { "type": "Point", "coordinates": [ -1.7214672, 47.9787589 ] } },
{ "type": "Feature", "properties": { "ID_BAT": 17, "CODE_COM": 35139, "NOM_COM": "Laillé", "NOM_BATI": "Restaurant scolaire", "ADRESSE": "3 Rue du Patis", "X": -1.7157448, "Y": 47.9795322, "SURFACE": 927, "RENOVATION": "Oui", "TYPE": "Scolaire" }, "geometry": { "type": "Point", "coordinates": [ -1.7157448, 47.9795322 ] } },
{ "type": "Feature", "properties": { "ID_BAT": 18, "CODE_COM": 35139, "NOM_COM": "Laillé", "NOM_BATI": "Complexe l'Archipel", "ADRESSE": "2 Boulevard du Commandant Cousteau", "X": -1.718013, "Y": 47.9825655, "SURFACE": 3499, "RENOVATION": "Non", "TYPE": "Sportif" }, "geometry": { "type": "Point", "coordinates": [ -1.718013, 47.9825655 ] } },
{ "type": "Feature", "properties": { "ID_BAT": 19, "CODE_COM": 35139, "NOM_COM": "Laillé", "NOM_BATI": "Services Techniques + Salle Polyvalente", "ADRESSE": "39 Rue de la Halte", "X": -1.7317803, "Y": 47.9795644, "SURFACE": 1400, "RENOVATION": "Non", "TYPE": "Administratif" }, "geometry": { "type": "Point", "coordinates": [ -1.7317803, 47.9795644 ] } }
]
}
